{"version":"2025.1","lastUpdated":"2025-10-02","totalStadiums":32,"stadiums":[{"team_code":"ARI","name":"State Farm Stadium","city":"Glendale","latitude":33.5276,"longitude":-112.2626,"roof_type":"retractable","stadium_type":"indoor","is_dome":true,"is_international":false},{"team_code":"ATL","name":"Mercedes-Benz Stadium","city":"Atlanta","latitude":33.7553,"longitude":-84.4006,"roof_type":"retractable","stadium_type":"indoor","is_dome":true,"is_international":false},{"team_code":"BAL","name":"M&T Bank Stadium","city":"Baltimore","latitude":39.278,"longitude":-76.6227,"roof_type":"open","stadium_type":"outdoor","is_dome":false,"is_international":false},{"team_code":"BUF","name":"Highmark Stadium","city":"Orchard Park","latitude":42.7738,"longitude":-78.787,"roof_type":"open","stadium_type":"outdoor","is_dome":false,"is_international":false},{"team_code":"CAR","name":"Bank of America Stadium","city":"Charlotte","latitude":35.2258,"longitude":-80.8528,"roof_type":"open","stadium_type":"outdoor","is_dome":false,"is_international":false},{"team_code":"CHI","name":"Soldier Field","city":"Chicago","latitude":41.8623,"longitude":-87.6167,"roof_type":"open","stadium_type":"outdoor","is_dome":false,"is_international":false},{"team_code":"CIN","name":"Paycor Stadium","city":"Cincinnati","latitude":39.0955,"longitude":-84.516,"roof_type":"open","stadium_type":"outdoor","is_dome":false,"is_international":false},{"team_code":"CLE","name":"Cleveland Browns Stadium","city":"Cleveland","latitude":41.5061,"longitude":-81.6995,"roof_type":"open","stadium_type":"outdoor","is_dome":false,"is_international":false},{"team_code":"DAL","name":"AT&T Stadium","city":"Arlington","latitude":32.7473,"longitude":-97.0945,"roof_type":"retractable","stadium_type":"indoor","is_dome":true,"is_international":false},{"team_code":"DEN","name":"Empower Field at Mile High","city":"Denver","latitude":39.7439,"longitude":-105.0201,"roof_type":"open","stadium_type":"outdoor","is_dome":false,"is_international":false},{"team_code":"DET","name":"Ford Field","city":"Detroit","latitude":42.34,"longitude":-83.0456,"roof_type":"dome","stadium_type":"indoor","is_dome":true,"is_international":false},{"team_code":"GB","name":"Lambeau Field","city":"Green Bay","latitude":44.5013,"longitude":-88.0622,"roof_type":"open","stadium_type":"outdoor","is_dome":false,"is_international":false},{"team_code":"HOU","name":"NRG Stadium","city":"Houston","latitude":29.6847,"longitude":-95.4107,"roof_type":"retractable","stadium_type":"indoor","is_dome":true,"is_international":false},{"team_code":"IND","name":"Lucas Oil Stadium","city":"Indianapolis","latitude":39.7601,"longitude":-86.1639,"roof_type":"retractable","stadium_type":"indoor","is_dome":true,"is_international":false},{"team_code":"JAX","name":"TIAA Bank Field","city":"Jacksonville","latitude":30.324,"longitude":-81.6374,"roof_type":"open","stadium_type":"outdoor","is_dome":false,"is_international":false},{"team_code":"KC","name":"Arrowhead Stadium","city":"Kansas City","latitude":39.0489,"longitude":-94.4839,"roof_type":"open","stadium_type":"outdoor","is_dome":false,"is_international":false},{"team_code":"LAC","name":"SoFi Stadium","city":"Los Angeles","latitude":33.9535,"longitude":-118.3392,"roof_type":"partial","stadium_type":"outdoor","is_dome":false,"is_international":false},{"team_code":"LAR","name":"SoFi Stadium","city":"Los Angeles","latitude":33.9535,"longitude":-118.3392,"roof_type":"partial","stadium_type":"outdoor","is_dome":false,"is_international":false},{"team_code":"LV","name":"Allegiant Stadium","city":"Las Vegas","latitude":36.0908,"longitude":-115.1834,"roof_type":"dome","stadium_type":"indoor","is_dome":true,"is_international":false},{"team_code":"MIA","name":"Hard Rock Stadium","city":"Miami Gardens","latitude":25.958,"longitude":-80.2389,"roof_type":"partial","stadium_type":"outdoor","is_dome":false,"is_international":false},{"team_code":"MIN","name":"U.S. Bank Stadium","city":"Minneapolis","latitude":44.9738,"longitude":-93.2581,"roof_type":"dome","stadium_type":"indoor","is_dome":true,"is_international":false},{"team_code":"NE","name":"Gillette Stadium","city":"Foxborough","latitude":42.0909,"longitude":-71.2643,"roof_type":"open","stadium_type":"outdoor","is_dome":false,"is_international":false},{"team_code":"NO","name":"Caesars Superdome","city":"New Orleans","latitude":29.9511,"longitude":-90.0812,"roof_type":"dome","stadium_type":"indoor","is_dome":true,"is_international":false},{"team_code":"NYG","name":"MetLife Stadium","city":"East Rutherford","latitude":40.8128,"longitude":-74.0742,"roof_type":"open","stadium_type":"outdoor","is_dome":false,"is_international":false},{"team_code":"NYJ","name":"MetLife Stadium","city":"East Rutherford","latitude":40.8128,"longitude":-74.0742,"roof_type":"open","stadium_type":"outdoor","is_dome":false,"is_international":false},{"team_code":"PHI","name":"Lincoln Financial Field","city":"Philadelphia","latitude":39.9008,"longitude":-75.1675,"roof_type":"open","stadium_type":"outdoor","is_dome":false,"is_international":false},{"team_code":"PIT","name":"Acrisure Stadium","city":"Pittsburgh","latitude":40.4468,"longitude":-80.0158,"roof_type":"open","stadium_type":"outdoor","is_dome":false,"is_international":false},{"team_code":"SEA","name":"Lumen Field","city":"Seattle","latitude":47.5952,"longitude":-122.3316,"roof_type":"partial","stadium_type":"outdoor","is_dome":false,"is_international":false},{"team_code":"SF","name":"Levi's Stadium","city":"Santa Clara","latitude":37.4032,"longitude":-121.9698,"roof_type":"open","stadium_type":"outdoor","is_dome":false,"is_international":false},{"team_code":"TB","name":"Raymond James Stadium","city":"Tampa","latitude":27.9759,"longitude":-82.5033,"roof_type":"open","stadium_type":"outdoor","is_dome":false,"is_international":false},{"team_code":"TEN","name":"Nissan Stadium","city":"Nashville","latitude":36.1665,"longitude":-86.7713,"roof_type":"open","stadium_type":"outdoor","is_dome":false,"is_international":false},{"team_code":"WAS","name":"Northwest Stadium","city":"Landover","latitude":38.9077,"longitude":-76.8645,"roof_type":"open","stadium_type":"outdoor","is_dome":false,"is_international":false}]}